    {
        "visits": {
            "af6600f5503a482fdc1bc54fa9aa91c6": {
                
                
                "duration": 5,
                "load": 5,
                "priority": 1,
                "location": {
                    "name": "Malar  . , House No  2/26 ,pillaiyar Kovil st Ramapuram Chennai, Opp  DLF Ramapuram S.O (Kanchipura ,600089",
                    "lat": 13.0180773,
                    "lng": 80.18702239999999
                }
            },
            "42bd39a6fe4c41c3b184036b78ca29d0": {
                
                
                "duration": 5,
                "load": 3,
                "priority": 1,
                "location": {
                    "name": "A THAMEEM , CHENNAIS3 2ND FLOOR,113 DIFFENCE COLCHENNAI  , TAMIL NADU ,600097",
                    "lat": 12.9383783,
                    "lng": 80.23961779999999
                }
            },
            "e5b18ba93edb453e9e9d058307434d5f": {
                
                
                "duration": 5,
                "load": 1,
                "priority": 1,
                "location": {
                    "name": "maxx arjun , palmshore NO 8 PARK DUGAL MOUN T POONAMALLEE HIGE ROAD RAMAPU Chennai ,600089",
                    "lat": 13.0263625,
                    "lng": 80.1747311
                }
            },
            "5daee7ac57ce4c118f24ca162e07f91d": {
                
                
                "duration": 5,
                "load": 2,
                "priority": 1,
                "location": {
                    "name": "Sinduja Krishna kumar , No 1, Sindu Villa, Kannadasan nagar Ramapuram Main road ,600089",
                    "lat": 13.1336087,
                    "lng": 80.2565256
                }
            },
            "18106966dc004003dd1e5b369da37c90": {
                
                
                "duration": 5,
                "load": 3,
                "priority": 1,
                "location": {
                    "name": "VIVEK KUMAR JHA , NO:5,GST MAIN ROAD,MEENAMBAKAM, HOTEL SOUTHERN COMFORT ,600027",
                    "lat": 12.9859261,
                    "lng": 80.1744318
                }
            },
            "42f01c22fc3341978e0874ee1ac26e66": {
                
                
                "duration": 5,
                "load": 1,
                "priority": 1,
                "location": {
                    "name": "ATHIF , BLOCK 3,DLF MOUNT POONAMALLE HIGH ROAD, MANAPPAKAM ,600089",
                    "lat": 13.0216187,
                    "lng": 80.17572919999999
                }
            },
            "8fb42985c8fc4da4be0c03b2fbdb117d": {
                
                
                "duration": 5,
                "load": 0.5,
                "priority": 1,
                "location": {
                    "name": "Priyadharshini , No 81 s2 Tsr illam 8th cross H indu colony Chennai ,600061",
                    "lat": 12.9780211,
                    "lng": 80.18406279999999
                }
            },
            "269ae14350024764aaa83809dc049659": {
                
                
                "duration": 5,
                "load": 0.5,
                "priority": 1,
                "location": {
                    "name": "MS T KAVITHA KAVITHA , BF3 GURU SRIRAM APARTMENT PLOT NO 45 VALLUVAR SALAI RAMAPUU CHENNAI , TAMIL NADU ,600089",
                    "lat": 13.0275077,
                    "lng": 80.18438979999999
                }
            },
            "51d89a3ec5724018c47e548b5e23a111": {
                
                
                "duration": 5,
                "load": 0.5,
                "priority": 1,
                "location": {
                    "name": "PARTHIPAN PALANI , 13/17 F3 VINOTH CASTLE VENUGOPALAPURAM 2 ND STREET PALAVANTHANGAL TAMIL NADU ,600114",
                    "lat": 10.4500374,
                    "lng": 77.5161356
                }
            },
            "c4c2cee5126e4dc7cd2cab586bf72e84": {
                
                
                "duration": 5,
                "load": 0.5,
                "priority": 1,
                "location": {
                    "name": "MAHENDRAN M. SWISS GARNIER LIF , NO 25 KAMBAR STREET ALANDUR NEAR LE ROYAL MERIDIAN HOTEL ,600016",
                    "lat": 13.006419,
                    "lng": 80.204669
                }
            },
            "b06ed98d391047db8c65333c46d740d8": {
                
                
                "duration": 5,
                "load": 0.5,
                "priority": 1,
                "location": {
                    "name": "M.K.SAIRAMESH , G1GURU ARCHANA APARTMENTS OLDNO:25,NEW NO: 3, 6TH MAIN ROAD NEAR INDEPENDENCEDAY PAR ,600061",
                    "lat": 12.9808593,
                    "lng": 80.18533819999999
                }
            },
            "d301a9af45514919b143aca6db43435d": {
                
                
                "duration": 5,
                "load": 0.5,
                "priority": 1,
                "location": {
                    "name": "GIRIJA K YADAV , FLAT NO.9, LIG1, 1ST FLOOR, TNB APARTMENTS, SENTAMIL NAGAR,RAMAPURAM NEAR BALAJI NUR ,600089",
                    "lat": 13.0326955,
                    "lng": 80.18465499999999
                }
            },
            "2387b38c18d0483596ad7e22b13c7552": {
                
                
                "duration": 5,
                "load": 0.5,
                "priority": 1,
                "location": {
                    "name": "Yasam Dharani , 5/97, andavar nagar bajanai ko yel street,Ramapuram Kanchipur am Tamil Nadu India 600089 ,600089",
                    "lat": 13.0307146,
                    "lng": 80.181578
                }
            },
            "e3024415bddc49529e4ed9b10587f314": {
                
                
                "duration": 5,
                "load": 0.5,
                "priority": 1,
                "location": {
                    "name": "AMEEN , NO 15 VIVEKANATHAR STREET MGRNAGAR CHENNAI MARKET ,600078",
                    "lat": 13.0352253,
                    "lng": 80.19727019999999
                }
            },
            "f4e3ea358c344c73865719454e7a3267": {
                
                
                "duration": 5,
                "load": 0.5,
                "priority": 1,
                "location": {
                    "name": "KAMALAKANNAN , NO 13/5,30TH STREET, THILLAI GANGA NAGAR,NANGANALLUR NEAR ANJANEYAR TEMPLE ,600061",
                    "lat": 12.9868283,
                    "lng": 80.1928975
                }
            },
            "a51f185c54654792e7d90b9fdfef88e8": {
                
                
                "duration": 5,
                "load": 0.5,
                "priority": 1,
                "location": {
                    "name": "SENTHILKUMAR , A2 EMERALD FLATS GROUND FLOOR31 ST STREET NANGANALLUR ,600061",
                    "lat": 12.9753604,
                    "lng": 80.1901219
                }
            },
            "66da54324dfa4013b888d511bbfba4fe": {
                
                
                "duration": 5,
                "load": 0.5,
                "priority": 1,
                "location": {
                    "name": "UMAYA , NO.13/6 MADUVINKARAI 5TH STREET , ALANDUR NEAR E.B OFFICE ,600016",
                    "lat": 13.001528,
                    "lng": 80.2116755
                }
            },
            "175d185987344438e32eaa54d2bbea7b": {
                
                
                "duration": 5,
                "load": 0.5,
                "priority": 1,
                "location": {
                    "name": "Saranya S , 22nd Street, Nehru Colony, Paz havanthangal NO5, HADI BREEZE Kanchipuram, Tamil Nadu ,600114",
                    "lat": 12.9843503,
                    "lng": 80.1841796
                }
            },
            "33602012d2494988af92dfc6d8586105": {
                
                
                "duration": 5,
                "load": 0.5,
                "priority": 1,
                "location": {
                    "name": "Aadhi adhi , 23 Palai Street MGR Nagar Nesa pakkam near sai ram hot chips Chennai, Tamil Nadu ,600078",
                    "lat": 13.0347332,
                    "lng": 80.20187729999999
                }
            },
            "72bb0954b0a94a81813b84a8284ae816": {
                
                
                "duration": 5,
                "load": 0.5,
                "priority": 1,
                "location": {
                    "name": "manisha prasad , flat no 2, ground floor, om sh akti flat, BV nagar 3 Street, Meenabakkm, Chennai 27 ,600027",
                    "lat": 12.9726805,
                    "lng": 80.1804354
                }
            },
            "b74ed8450eb647dd8ce040bbbaeaded9": {
                
                
                "duration": 5,
                "load": 0.5,
                "priority": 1,
                "location": {
                    "name": "Lavanya , No 3 6 Anies nagar Vallalar st reet  Opposite to mosque Ramap chennai ,600089",
                    "lat": 13.0180773,
                    "lng": 80.18702239999999
                }
            },
            "a239e93a0f124801ac34b9cc1ffc6552": {
                
                
                "duration": 5,
                "load": 0.5,
                "priority": 1,
                "location": {
                    "name": "AmoghShenoy , 1 / 5, Homefinders EstateValluvar Salai, Ramapuram ,600089",
                    "lat": 13.0251014,
                    "lng": 80.1835751
                }
            },
            "c8e7a8ea79e74840952e30debf6940b8": {
                
                
                "duration": 5,
                "load": 0.5,
                "priority": 1,
                "location": {
                    "name": "Bhanumathi Krishnan , Flat 4E,Maran Enclave,23,West Vanniar St West K.K.Nagar ,600078",
                    "lat": 13.0392249,
                    "lng": 80.1898527
                }
            },
            "cb95cfe2515b408dd525e44bc41515be": {
                
                
                "duration": 5,
                "load": 0.5,
                "priority": 1,
                "location": {
                    "name": "R SASIKUMAR , AGR PLATINA,32,DEVELOPED PLOTNP, EKKATTUTHANGAL JAYA TVBESIDES FLYOVER ,600032",
                    "lat": 13.02248,
                    "lng": 80.203187
                }
            },
            "99d33f2ded894eb7a8f787dab27ddea4": {
                
                
                "duration": 5,
                "load": 0.5,
                "priority": 1,
                "location": {
                    "name": "Ashis Kumar Das Das , Ashok Leyland Sardar Patel Road  Little Mount  Guindy Chennai600032  ph no 9176062170,CHE ,600032",
                    "lat": 13.0123884,
                    "lng": 80.2220057
                }
            },
            "ef3fa61f1dd2471becfd5e4fd5f7f692": {
                
                
                "duration": 5,
                "load": 0.5,
                "priority": 1,
                "location": {
                    "name": "VAISNAVEE , 3F, 4TH BLOCK, ASVINI AMARISAFLATS, KALASATHAMMAN KOIL STREET OPP TO EB OFFICE ,600089",
                    "lat": 12.9259401,
                    "lng": 77.5830419
                }
            },
            "28a0e082e5b0450ff9f2d15e56729560": {
                
                
                "duration": 5,
                "load": 0.5,
                "priority": 1,
                "location": {
                    "name": "RAJESH BABU , 10/24 , JAL STREET, ALANDUR ALANDUR NEAR ROYAL MERIDEN ,600016",
                    "lat": 13.0028575,
                    "lng": 80.20496419999999
                }
            },
            "96a98a1748e84859d48c4742be1730f2": {
                
                
                "duration": 5,
                "load": 0.5,
                "priority": 1,
                "location": {
                    "name": "KANNAN , 29/47 SESHA RADHA ILLAM GROUN FLOOR MIDDLE PORTION VEMBULI AMMAN KOIL STREET,PALAVANTHANG ,600114",
                    "lat": 12.987508,
                    "lng": 80.1865234
                }
            },
            "a6406f1739ac44b9d91be9f6fa984df4": {
                
                
                "duration": 5,
                "load": 0.5,
                "priority": 1,
                "location": {
                    "name": "mithraarun , 21D Raagam Palace vishwanathapuram nanganallur KCT kalyana mahal ,600114",
                    "lat": 12.9809059,
                    "lng": 80.1809895
                }
            },
            "98481977d47d47d48335adb46aab61df": {
                
                
                "duration": 5,
                "load": 0.5,
                "priority": 1,
                "location": {
                    "name": "M.mohamed abdul Kadhar , Visioncare optics 7 7balu samy street palavanthagal chenna Chennai ,600114",
                    "lat": 12.9889896,
                    "lng": 80.1882195
                }
            },
            "37a44d5b7e944c40d155e5598dab6e3f": {
                
                
                "duration": 5,
                "load": 0.5,
                "priority": 1,
                "location": {
                    "name": "vijaydas , 6/44 Perumal street butt road Perumal street butt road St T Alandur,TN ,600016",
                    "lat": 13.0089132,
                    "lng": 80.1967061
                }
            },
            "203ca18881f74c3b98607ee8c77259ee": {
                
                
                "duration": 5,
                "load": 0.5,
                "priority": 1,
                "location": {
                    "name": "Arjun Menon , No.5 , Durgha Harmony , NGO Co lony 3rd Street, Nanganallur ,600061",
                    "lat": 12.9753604,
                    "lng": 80.1901219
                }
            },
            "4a8baaeba35e41c68e6b971b103f04e9": {
                
                
                "duration": 5,
                "load": 0.5,
                "priority": 1,
                "location": {
                    "name": "SowmyaNarayani S , LT Construction Mount Poonama llee Road Near DLF Manapakkam, Chennai ,600089",
                    "lat": 13.0233468,
                    "lng": 80.1786763
                }
            },
            "4af67c1343134177b6ca284fabaca840": {
                
                
                "duration": 5,
                "load": 0.5,
                "priority": 1,
                "location": {
                    "name": "Lalitha.Ramachandran. , A36 7  C   1  Brindavan flats 4th cross st Hindu colony Nang Chennai ,600061",
                    "lat": 12.9768036,
                    "lng": 80.18245519999999
                }
            },
            "02ae62b1667a4975965be4439c5def73": {
                
                
                "duration": 5,
                "load": 0.5,
                "priority": 1,
                "location": {
                    "name": "Thomas  Mathew , 23/24 Madava Perumal East Stre et Alandur  Alandur, TN ,600016",
                    "lat": 13.0049385,
                    "lng": 80.20672739999999
                }
            },
            "9687d23adee1440a8379ab8c0291bd09": {
                
                
                "duration": 5,
                "load": 0.5,
                "priority": 1,
                "location": {
                    "name": "Ponmudi   Kathirvelu , 1/3,3rd cross st,1st main roa d,  Vengateswara nagar,Ramapur am, ,600089",
                    "lat": 8.7599422,
                    "lng": 77.11687529999999
                }
            },
            "fc12cd6bc8bd4231c8535e567aed03f0": {
                
                
                "duration": 5,
                "load": 0.5,
                "priority": 1,
                "location": {
                    "name": "ramya , no.13 f2 selvam construction j ai balaji nagar 3rdstreet Nesa pakkam ,600078",
                    "lat": 13.0410254,
                    "lng": 80.2000596
                }
            },
            "e42c648600274f66c516809995ea3320": {
                
                
                "duration": 5,
                "load": 0.5,
                "priority": 1,
                "location": {
                    "name": "Abhishek  Janardhanam , F2 Shakti Apartments, No.433 Ramaswamy Salai, KK Nagar Behind Padmaseshadri School Tamil N ,600078",
                    "lat": 13.0407464,
                    "lng": 80.20127649999999
                }
            },
            "d0bc1526d4f6499c8296d71443b4948c": {
                
                
                "duration": 5,
                "load": 0.5,
                "priority": 1,
                "location": {
                    "name": "Shilpa Ramachandran , 202, Landmark Maya, No.59, R.K .Shanmugam Salai, K.K.Nagar, ,600078",
                    "lat": 13.0392834,
                    "lng": 80.2019384
                }
            },
            "1fae41d35ba84683f54e7a033855a428": {
                
                
                "duration": 5,
                "load": 0.5,
                "priority": 1,
                "location": {
                    "name": "sneha reddy , No 10,chandran street,maduvankarai,guindy,chennai. Landmarkopposite road to beta matricul ,600032",
                    "lat": 12.9990522,
                    "lng": 80.2076594
                }
            },
            "7c268267e23840ccc45d34a1d82500c4": {
                
                
                "duration": 5,
                "load": 0.5,
                "priority": 1,
                "location": {
                    "name": "naveen  dhayalyan , 3/8 sathya nagar 1st cross str eet Ramapuram  Chennai TAMILNA DU ,600089",
                    "lat": 13.0226878,
                    "lng": 80.1849859
                }
            },
            "6b03000487434ef5b5ef54475b9de80b": {
                
                
                "duration": 5,
                "load": 0.5,
                "priority": 1,
                "location": {
                    "name": "mohini sahu , No.752/B,59th street,Prajwal T apowan,10th sector,K.K.Nagar,C hennai78 ,600078",
                    "lat": 13.0430676,
                    "lng": 80.1952652
                }
            },
            "2b991eeefe7343669d54c31ff57d03e1": {
                
                
                "duration": 5,
                "load": 0.5,
                "priority": 1,
                "location": {
                    "name": "SRAVANI K , C40,NAD COLONY,MINAMBAKKAM, CHENNAI OLD AIRPORT ENTRANCEOLD AIRPORT ENTRANCE ,600027",
                    "lat": 12.9883098,
                    "lng": 80.1798343
                }
            },
            "2fd5ac00c1634f0dfacd2657451fff4b": {
                
                
                "duration": 5,
                "load": 0.5,
                "priority": 1,
                "location": {
                    "name": "FATNANI CHIRAG RAJU PS NO.2009 , TC 3, TOWER B, 3RD FLOOR, C WING , LT CONSTRUCTION, MANAPAK MANAPAKKAM LT CONSTRUCTI ,600089",
                    "lat": 13.0233468,
                    "lng": 80.1786763
                }
            },
            "66ca4b6da7be4742ae4741ec0a660fc3": {
                
                
                "duration": 5,
                "load": 3,
                "priority": 1,
                "location": {
                    "name": "AISHWARYA MOHAN , 7TH FLOOR, OLYMPIA NATIONAL TOWERS (SMARTWORKS) GUINDY INDUSTRIAL ESTATE, GUINDY ,600032",
                    "lat": 13.0248417,
                    "lng": 80.20733059999999
                }
            },
            "8e59910c92914b20bfd58a25ec518507": {
                
                
                "duration": 5,
                "load": 1,
                "priority": 1,
                "location": {
                    "name": "srijana chowdhury , 5/14, Shri Ram Nagar 1st Stree t Ramapuram Chennai 89 ,600089",
                    "lat": 13.0322223,
                    "lng": 80.24955659999999
                }
            },
            "762a2863d97a4b59d98b8d573c978d59": {
                
                
                "duration": 5,
                "load": 2,
                "priority": 1,
                "location": {
                    "name": "T Uvaraj , No 11,,Raman Street, Periyar N agar,Nesapakkam Tamil Nadu ,600078",
                    "lat": 13.1212281,
                    "lng": 80.2535984
                }
            },
            "8b1282702fe24dd0f0a832691a177ce6": {
                
                
                "duration": 5,
                "load": 3,
                "priority": 1,
                "location": {
                    "name": "Raeesa  Jodha , Main Bungalow on the left , Madras Riding School(Madras School of Equitation) ,71, velache ,600032",
                    "lat": 12.9989153,
                    "lng": 80.2167553
                }
            },
            "2df29656d5244680fbf8d7be84b0b095": {
                
                
                "duration": 5,
                "load": 1,
                "priority": 1,
                "location": {
                    "name": "Elavarasan , vishnu cars,kalasathamman kovil Street ,ramapuram,vishnu cars,kalasathamman kovil Street , ,600089",
                    "lat": 13.0180773,
                    "lng": 80.18702239999999
                }
            },
            "5cd5c7fa63db4156c3383a9672ff92c6": {
                
                
                "duration": 5,
                "load": 1,
                "priority": 1,
                "location": {
                    "name": "LINGARAJA SAMINATHAN , A7 & 8 TVK INDUSTRIAL ESTATE,GUINDY OPPOSITE GUINDY POLICESTATION ,600032",
                    "lat": 13.0131679,
                    "lng": 80.21104509999999
                }
            },
            "f82939cc7aa9445daf883478a2e48e12": {
                
                
                "duration": 5,
                "load": 1,
                "priority": 1,
                "location": {
                    "name": "SelvalakshmiMurugesan , No.15/25 3rd Cross Street, West CIT Nagar, Nandanam, ,600035",
                    "lat": 13.0298287,
                    "lng": 80.2344877
                }
            },
            "bf141c373a38467deb3173c8628a6647": {
                
                
                "duration": 5,
                "load": 1,
                "priority": 1,
                "location": {
                    "name": "Raeesa  Jodha , Main Bungalow on the left , Madras Riding School(Madras School of Equitation) ,71, velache ,600032",
                    "lat": 12.9989153,
                    "lng": 80.2167553
                }
            },
            "acb1a0c2b2ef4aa795fd1062535f4c7a": {
                
                
                "duration": 5,
                "load": 1,
                "priority": 1,
                "location": {
                    "name": "Udaya Kumar v , 3 60 mettu street St Thomas mo unt Butt road Chennai ,600018",
                    "lat": 13.0976018,
                    "lng": 80.2334717
                }
            },
            "da6ea2b011944aa7e0838b3e1de14546": {
                
                
                "duration": 5,
                "load": 1,
                "priority": 1,
                "location": {
                    "name": "Raeesa  Jodha , Main Bungalow on the left , Madras Riding School(Madras School of Equitation) ,71, velache ,600032",
                    "lat": 12.9989153,
                    "lng": 80.2167553
                }
            },
            "76dbdc5d38304395bd5ba8906a101774": {
                
                
                "duration": 5,
                "load": 1,
                "priority": 1,
                "location": {
                    "name": "Ayushi  Vashisth , Flat  S2, H/9 2nd Street, Nea r Ganesh Temple Giri Nagar, RM AMPURAM Tamil Nadu INTN ,600087",
                    "lat": 12.9420948,
                    "lng": 77.5463577
                }
            },
            "cd580cfb35834f09caf0f1f4f26985c8": {
                
                
                "duration": 5,
                "load": 1,
                "priority": 1,
                "location": {
                    "name": "Ramesh Narayanan , CHENNAI CHENNAI TAMIL NADU33 ,600089",
                    "lat": 13.0180773,
                    "lng": 80.18702239999999
                }
            },
            "1e26651910fe4a09a275b20fca312e53": {
                
                
                "duration": 5,
                "load": 5,
                "priority": 1,
                "location": {
                    "name": "Kumar D , No 75  Nagai Yusuf Illam  Periyar Street  Ambal Nagar  RamapuramChennai ,600089",
                    "lat": 13.0180773,
                    "lng": 80.18702239999999
                }
            },
            "e12029516df64d1384550bc47220edba": {
                
                
                "duration": 5,
                "load": 3,
                "priority": 1,
                "location": {
                    "name": "murugan , ekkattuthangal 2 14 poomagal 4 th street Chennai ,600032",
                    "lat": 13.01707,
                    "lng": 80.20280699999999
                }
            },
            "5a420bf3a40c4b0caf159ac8a9961fbc": {
                
                
                "duration": 5,
                "load": 1,
                "priority": 1,
                "location": {
                    "name": "kameshwari villivalam , 8,1st floor, balavinayagar koi l street ekkaduthangal ,600032",
                    "lat": 12.9823632,
                    "lng": 80.1827553
                }
            },
            "ff7e8cd4caf149cbd358513063ccb636": {
                
                
                "duration": 5,
                "load": 2,
                "priority": 1,
                "location": {
                    "name": "PraveenKumar , reet mkn road, alandur chennai ,600016",
                    "lat": 12.999409,
                    "lng": 80.2024878
                }
            },
            "f93208b3f6514426c6c818abee85fed9": {
                
                
                "duration": 5,
                "load": 3,
                "priority": 1,
                "location": {
                    "name": "Chellappa , Varna Homes P Ltd 8/1, Sarojin i Street, T.Nagar, Chennai Che nnai Tamil Nadu India ,600016",
                    "lat": 13.036827,
                    "lng": 80.23347199999999
                }
            },
            "ab10e47eb0b14b57ca0d16d5b0f9d583": {
                
                
                "duration": 5,
                "load": 1,
                "priority": 1,
                "location": {
                    "name": "Probin basumatary , Peenya 2nd sagen city Universa l gess Universal gess Chennai ,600016",
                    "lat": 13.0258725,
                    "lng": 80.1845596
                }
            },
            "17b792ce4f69480ac9ca55512a4a4b14": {
                
                
                "duration": 5,
                "load": 0.5,
                "priority": 1,
                "location": {
                    "name": "VANISHRI , MAVERIC SYSTEMS,3RD FLOOR, LORDS TOWER THIRU VI KA INDUSTRIAL ESTATE, EKKATUTHANGAL ,600032",
                    "lat": 13.022624,
                    "lng": 80.20671399999999
                }
            },
            "36b7816571f04a5ddf1d56c7dd319a0a": {
                
                
                "duration": 5,
                "load": 0.5,
                "priority": 1,
                "location": {
                    "name": "Subhasree , OlympiaTechnologyParkSIDC OIndustrialEstateGuindy ChennaiTamilNadu ,600032",
                    "lat": 13.0177153,
                    "lng": 80.2056743
                }
            },
            "9091f9f83fb947ccf1fe4f9b69945520": {
                
                
                "duration": 5,
                "load": 0.5,
                "priority": 1,
                "location": {
                    "name": "jayakumar balaji , no24,6th block,new police qtrs,alandur St.Thomas Mount ,600016",
                    "lat": 12.9964563,
                    "lng": 80.1982902
                }
            },
            "c7f075b05fd04a7ffb25220502e1fd3f": {
                
                
                "duration": 5,
                "load": 0.5,
                "priority": 1,
                "location": {
                    "name": "avenkatesan venkatesan , Pilliyar Kovil Street Nesapakk am ,600078",
                    "lat": 13.0283099,
                    "lng": 80.191054
                }
            },
            "b7f590a4573647acc5af2b693627bce0": {
                
                
                "duration": 5,
                "load": 0.5,
                "priority": 1,
                "location": {
                    "name": "Varun Sankarapandian , CHENNAI 25 A/1 Sai Aishwaryam apartments, vandikaran street, Guindy ,600032",
                    "lat": 12.9975638,
                    "lng": 80.20998399999999
                }
            },
            "da109bec4384450b9c1b0bf91e23bf2a": {
                
                
                "duration": 5,
                "load": 0.5,
                "priority": 1,
                "location": {
                    "name": "Vicky Vicky , NO 15 ARULYAMMEN STREET ,600032",
                    "lat": 13.0177153,
                    "lng": 80.2056743
                }
            },
            "d8e11a3b71f14d1ea01e32807b99636b": {
                
                
                "duration": 5,
                "load": 0.5,
                "priority": 1,
                "location": {
                    "name": "Padmavathi Balaji , 45/2, meenakshi street, nehru nagar, ramapuram, Chennai 6000 89 ,600089",
                    "lat": 13.0312597,
                    "lng": 80.1873726
                }
            },
            "c472b4770f8644e1a22e385bea3a16cb": {
                
                
                "duration": 5,
                "load": 0.5,
                "priority": 1,
                "location": {
                    "name": "Shalini , 1st Street Ganapathi nager ,600032",
                    "lat": 13.0177153,
                    "lng": 80.2056743
                }
            },
            "bd6847115019451cbe8ec80141750225": {
                
                
                "duration": 5,
                "load": 0.5,
                "priority": 1,
                "location": {
                    "name": "RoomaniSatpathy , Aiswariyam ladies hostel Pillayor koil 5th street, ,600032",
                    "lat": 13.019281,
                    "lng": 80.2049463
                }
            },
            "c64a237c4f394a0bea35faf7d52932cd": {
                
                
                "duration": 5,
                "load": 0.5,
                "priority": 1,
                "location": {
                    "name": "MD UBAIR , DLF IT PARK, BLOCK 4, RAMAPURA M,MOUNT POONAMALLE HIGH ROAD Tamil Nadu ,600125",
                    "lat": 12.0037841,
                    "lng": 77.3963179
                }
            },
            "578f00b36c1a49d2f76c1d07696bae07": {
                
                
                "duration": 5,
                "load": 0.5,
                "priority": 1,
                "location": {
                    "name": "Balaji ES , 10 9 Velayudham Street  MGR Na gar Near Kanniamman koil Chennai ,600078",
                    "lat": 13.0540222,
                    "lng": 80.2431192
                }
            },
            "b1788e1c76df425acc0e3e99a2b1ff29": {
                
                
                "duration": 5,
                "load": 0.5,
                "priority": 1,
                "location": {
                    "name": "Rebecca , No 9 South Phase Thiru Vika Industrial Estate  Guindy  Behind Olyimpa Tech Park,Chennai,TA ,600032",
                    "lat": 13.0154992,
                    "lng": 80.20120039999999
                }
            },
            "bd31b890c7564f9b9971e3a541b3abe4": {
                
                
                "duration": 5,
                "load": 0.5,
                "priority": 1,
                "location": {
                    "name": "JEYRAM MARTANDAN , Amutha Medicals  GeneralsPalavanthangal SubwayCHENNAI ,600114",
                    "lat": 12.9879731,
                    "lng": 80.18563069999999
                }
            },
            "511e2fc9f0284e02a32119d9d9e15079": {
                
                
                "duration": 5,
                "load": 0.5,
                "priority": 1,
                "location": {
                    "name": "Rutuja Pande , H3, Sical Raceview apartments, Race Course road, near Aquati c complex, Guindy ,600032",
                    "lat": 13.0078297,
                    "lng": 80.218563
                }
            },
            "8f778c9b6247407bb0b8bc0c740cd8b9": {
                
                
                "duration": 5,
                "load": 0.5,
                "priority": 1,
                "location": {
                    "name": "Sruthi Srinivasan , B 97  1 11th Street  Hindu Colony  Sudha Sagar 1st FloorNanganallur ,600061",
                    "lat": 19.019742,
                    "lng": 72.8478554
                }
            },
            "ff646112e6254c35bd24bac136295868": {
                
                
                "duration": 5,
                "load": 0.5,
                "priority": 1,
                "location": {
                    "name": "NivethaRajendran , No.12(113/TS4), Munnusamy Stre et, Ekkattuthangal, Chennai ,600032",
                    "lat": 12.9768386,
                    "lng": 80.21950149999999
                }
            },
            "8bde4c6e548a4cde83d66a222d945100": {
                
                
                "duration": 5,
                "load": 0.5,
                "priority": 1,
                "location": {
                    "name": "Dharini Srinivasan , No.8/16,f2,ganesh flats,nangan allur Chennai Chennai, Tamil Nadu ,600061",
                    "lat": 12.9781943,
                    "lng": 80.18651090000002
                }
            },
            "0a44c4cb537c4ba3937f2c68309f3507": {
                
                
                "duration": 5,
                "load": 0.5,
                "priority": 1,
                "location": {
                    "name": "veena k , l amp t construction, tc2building, mount poonamalle high road manapakkam,near dlf ,600089",
                    "lat": 13.0233468,
                    "lng": 80.1786763
                }
            },
            "c1c7cee3ee8e419bf81931280422e862": {
                
                
                "duration": 5,
                "load": 0.5,
                "priority": 1,
                "location": {
                    "name": "Padma G , A2, Sigma Flats, Nanganallur 6 th main road, Chennai61. Land mark opposite to A2B ,600061",
                    "lat": 12.9808705,
                    "lng": 80.19062319999999
                }
            },
            "59e5374f95534f2eb53ce9f940fb1b08": {
                
                
                "duration": 5,
                "load": 0.5,
                "priority": 1,
                "location": {
                    "name": "HEENA NANKANI , ANDHRA LADIES PG , ESWARAN NAGR , RAMAPURAM RAMAPURAM , CHENNAI LES CROSSANTS BHARTI ,600089",
                    "lat": 15.9128998,
                    "lng": 79.7399875
                }
            },
            "86c55cde80f74b11c869ad5131dd3d16": {
                
                
                "duration": 5,
                "load": 0.5,
                "priority": 1,
                "location": {
                    "name": "Raj , House 15/r,surendhiran St,nav 15/r,surendhiran St,navalar c Chennai,TN ,600078",
                    "lat": 13.0583131,
                    "lng": 80.2020563
                }
            },
            "d20b5686026c4e89ce1000195cc37f5c": {
                
                
                "duration": 5,
                "load": 3,
                "priority": 1,
                "location": {
                    "name": "Jayashree , 3/1,19th Street, nehru colony, Nanganallur ,600114",
                    "lat": 12.9832313,
                    "lng": 80.1841348
                }
            },
            "ab3290b6c4754045ec72029e43b028cf": {
                
                
                "duration": 5,
                "load": 2,
                "priority": 1,
                "location": {
                    "name": "Kavitha S , BT1, Guru Royal Palace 142, Ra yala Nagar 1st Main Road, Rama puram ,600089",
                    "lat": 13.0286848,
                    "lng": 80.1864071
                }
            },
            "dfae460a000a4f8ca10c4fe9828b20bc": {
                
                
                "duration": 5,
                "load": 3,
                "priority": 1,
                "location": {
                    "name": "AJITHBALAGOPALAN , FLAT NO S2,36/28 RAAJA ILLAM 23RD THILLAI GANAGA NAGAR ,600061",
                    "lat": 12.9891982,
                    "lng": 80.1953865
                }
            },
            "6f3d5d282ae4476881c11897c468e67c": {
                
                
                "duration": 5,
                "load": 1,
                "priority": 1,
                "location": {
                    "name": "CRESCENTIA FERNANDO , NO.  4, JOSEPHST, PALAVANTHAGAL ,600114",
                    "lat": 12.962358,
                    "lng": 80.21062599999999
                }
            },
            "76d81fbff4c3436cf9c22100a5292844": {
                
                
                "duration": 5,
                "load": 1,
                "priority": 1,
                "location": {
                    "name": "M SHANMUGA SUNDARI , 1063 MUNUSAMY SALAI K K NAGAR WEST MUNUSAMY SALAI K K NAGAR WEST ,600078",
                    "lat": 13.0401833,
                    "lng": 80.1930782
                }
            },
            "c14194f22eb9479d9b8825b7e5b3d96e": {
                
                
                "duration": 5,
                "load": 1,
                "priority": 1,
                "location": {
                    "name": "Shruthi Jayasankar , Plot No  550  Door No  17  14th Street  4th Sector K.K.NagarChennai ,600078",
                    "lat": 13.0410254,
                    "lng": 80.2000596
                }
            },
            "1f40b5c190484239ee8ad7f556e8d83b": {
                
                
                "duration": 5,
                "load": 1,
                "priority": 1,
                "location": {
                    "name": "C Mahadevan , 4 E 2nd MRC Staff Qautres Bara thinagar GUINDY Chennai ,600032",
                    "lat": 13.0086279,
                    "lng": 80.2147158
                }
            },
            "be2371778d1b44c893b0cf96f3e56a33": {
                
                
                "duration": 5,
                "load": 1,
                "priority": 1,
                "location": {
                    "name": "Cyndrella J , No 26/23 hoppmen 2nd street Al andur st thomas mount chennai Chennia, Tamil Nadu ,600016",
                    "lat": 12.9959222,
                    "lng": 80.1934462
                }
            },
            "f51dbbb368674c44cdecd8c0256d237b": {
                
                
                "duration": 5,
                "load": 1,
                "priority": 1,
                "location": {
                    "name": "SMI MOHAMMED   TAMEEM , NO7/89 BHARATHIYAR LANE,PALAVANTHANGAL LANDMARKPAZHACANTHANGAL LOCAL STATION    Pazhavant ,600114",
                    "lat": 12.9891938,
                    "lng": 80.1866505
                }
            },
            "2d9635c262a641978e775e8f6f8ec243": {
                
                
                "duration": 5,
                "load": 1,
                "priority": 1,
                "location": {
                    "name": "Anandh , CHENNAI Block 9B, Cognizant T echnology Solutions,DLF IT PAR K,Ramapuram DLF IT PARK ,600089",
                    "lat": 13.0226372,
                    "lng": 80.1753663
                }
            },
            "63b4c2d922a140ced602e1297d75283e": {
                
                
                "duration": 5,
                "load": 1,
                "priority": 1,
                "location": {
                    "name": "Gunti Arun , RamapuramMulai nagar 2nd street hn  52 1 floor Chennai600089 Chennai ,600089",
                    "lat": 13.0277,
                    "lng": 80.17898
                }
            },
            "1dfe6d6cd2434cd4c43ed7a255e02f8d": {
                
                
                "duration": 5,
                "load": 0.5,
                "priority": 1,
                "location": {
                    "name": "Ila , Trident Chennai,1 24 G.S.T Roa d,MeenambakkamChennai  600027 ,600026",
                    "lat": 12.9940827,
                    "lng": 80.1861962
                }
            },
            "5c1a37cf9d144f0cb9bd7fc7e3b4f987": {
                
                
                "duration": 5,
                "load": 0.5,
                "priority": 1,
                "location": {
                    "name": "AshwiniK , Block no. 13 door 2 Pc/hc police qtrs, M.K.N Road Opp. To SBI bank ,600016",
                    "lat": 12.999409,
                    "lng": 80.2024878
                }
            },
            "f4c0e95c7956464cdf92a344634c9f09": {
                
                
                "duration": 5,
                "load": 0.5,
                "priority": 1,
                "location": {
                    "name": "Geetha , Af1 No3 Thillai Ganga Nagar 2nd Main Road Nanganallur ,600061",
                    "lat": 12.9907121,
                    "lng": 80.1922477
                }
            },
            "bd093a08a1ff40e0d06985af1ac5529b": {
                
                
                "duration": 5,
                "load": 3,
                "priority": 1,
                "location": {
                    "name": "Bhaswathi Muralidharan , No 23  22nd Street  Thillai Ganga Nagar  NanganllurChennai ,600061",
                    "lat": 12.9902695,
                    "lng": 80.1928875
                }
            },
            "320ed00f27404ef8cb2036ea0fb65320": {
                
                
                "duration": 5,
                "load": 1,
                "priority": 1,
                "location": {
                    "name": "Kishore kumar , CHENNAI 5/3 13th Street nehru colony nanganallur chennai 114 independenceday park ,600114",
                    "lat": 12.9809852,
                    "lng": 80.18370110000001
                }
            },
            "08289c4040d345b4f10f4bee2b840edf": {
                
                
                "duration": 5,
                "load": 2,
                "priority": 1,
                "location": {
                    "name": "balakumar , 103 nsic stp park, ekkatuthangal, guindy, near hyundai showroom chennai tamil ,600032",
                    "lat": 13.0182102,
                    "lng": 80.2064683
                }
            },
            "60fe20f947d640bcb9669117a2b53420": {
                
                
                "duration": 5,
                "load": 3,
                "priority": 1,
                "location": {
                    "name": "D DEVARAJ , C204, ARIHANT TIARA, PADMINI GARDEN STREET, MOUNT POONAMALLEE HIGH ROAD ,600089",
                    "lat": 13.0196429,
                    "lng": 80.1885562
                }
            },
            "87e2bed20a02424fa960f4de6c76ed94": {
                
                
                "duration": 5,
                "load": 1,
                "priority": 1,
                "location": {
                    "name": "sabitha , dlf ramapuram chennai tamil nadu ,600089",
                    "lat": 13.023814,
                    "lng": 80.178906
                }
            },
            "d2053480c7f84d65f107351f7f585c1a": {
                
                
                "duration": 5,
                "load": 1,
                "priority": 1,
                "location": {
                    "name": "SwathiMK , Block 7 ,DLF IT Park Mount Poonamalle Road, Mugalivakkam ,600089",
                    "lat": 13.0226193,
                    "lng": 80.1740229
                }
            },
            "02882fb481c144d7ff76e6a504ea4a16": {
                
                
                "duration": 5,
                "load": 1,
                "priority": 1,
                "location": {
                    "name": "Karthik Senguttuvan , 56,Durairaj Lane Chennai Tamil Nadu ,600114",
                    "lat": 12.9896577,
                    "lng": 80.1886282
                }
            },
            "b3850e50c16849c69973156856b89256": {
                
                
                "duration": 5,
                "load": 1,
                "priority": 1,
                "location": {
                    "name": "MR.KARTHICK.R , BLOCK 4MANAPAKKAMCHENNAI ,600089",
                    "lat": 13.0180773,
                    "lng": 80.18702239999999
                }
            },
            "7160b6953edf46eaf24d63172d172839": {
                
                
                "duration": 5,
                "load": 1,
                "priority": 1,
                "location": {
                    "name": "Gayathri , No. 2, G3, Vijay Castle 7th street Nanganallur Chennai 600 061 Opp. To NGH transit hotel ,600061",
                    "lat": 12.9769053,
                    "lng": 80.1886421
                }
            },
            "86006040b6414e309fe826d0c9ef6837": {
                
                
                "duration": 5,
                "load": 1,
                "priority": 1,
                "location": {
                    "name": "ShobanaRamesh , No.7/4, Thiruvalluvar Nagar TN ,600016",
                    "lat": 12.996335,
                    "lng": 80.19523199999999
                }
            },
            "5bbd49814f8d4e9a8fceb172d310cbec": {
                
                
                "duration": 5,
                "load": 1,
                "priority": 1,
                "location": {
                    "name": "Dharani Devi.B , Abhi retail super market 4,15,Kalasathamman Koil St, near byChellammal Nagar, Ramapuram,ch ,600089",
                    "lat": 13.0256502,
                    "lng": 80.1864573
                }
            },
            "e21511c7e0c64e1ac05039fdcfd9e57f": {
                
                
                "duration": 5,
                "load": 1,
                "priority": 1,
                "location": {
                    "name": "senthil , 6 Nehru Nagar Nehru Nagar Chennai,TN ,600032",
                    "lat": 13.084137,
                    "lng": 80.200383
                }
            },
            "f6a303e9563c4f07ae7ae7f46e372d0c": {
                
                
                "duration": 5,
                "load": 0.5,
                "priority": 1,
                "location": {
                    "name": "ISWARI ARAVIND , 4B, GREEN PEACE SANTOSA APARTMENTS NO. 197, DR. RAMASAMY SALAI, KK NAGAR NEAR GRACE B ,600078",
                    "lat": 13.041104,
                    "lng": 80.19756
                }
            },
            "c202978bb00747acdea39fb79a6b8a03": {
                
                
                "duration": 5,
                "load": 0.5,
                "priority": 1,
                "location": {
                    "name": "P CHANDRA MOHAN , SNEHAM APARTMENTS, No. 44/5 D, ,SEVENWELLS 2ND STREET, ST. T HOMAS MOUNT ,600016",
                    "lat": 13.0104811,
                    "lng": 80.19361549999999
                }
            },
            "ad5f6cf2ade648ca851f64e464033e51": {
                
                
                "duration": 5,
                "load": 0.5,
                "priority": 1,
                "location": {
                    "name": "LALITHA SUNDAR , RAMANIYAM AADHITYA,3A, 48,R.K.SHANMUGAM SALAI,KKNAGAR NEAR KKNAGAR K M HOSPITAL ,600078",
                    "lat": 13.0401887,
                    "lng": 80.2019399
                }
            },
            "6efcb708ebc94adeab8545ca83454851": {
                
                
                "duration": 5,
                "load": 0.5,
                "priority": 1,
                "location": {
                    "name": "YUVARANIKATHIRAVAN , No 32/22, Kothawal Street,Al Kothawal Street,Alandur,Chenn Alandur,TN ,600016",
                    "lat": 13.0023308,
                    "lng": 80.205872
                }
            },
            "28234306c9fd4136ba885bb91d0a6141": {
                
                
                "duration": 5,
                "load": 0.5,
                "priority": 1,
                "location": {
                    "name": "SaiduluDorepally , 87/3 CPWD Quarters Kk Nagar ESI Hospital, Ashok Pillar ,600078",
                    "lat": 13.0339135,
                    "lng": 80.2032902
                }
            },
            "ae9c60d6d2e049e99a3a8fc10af4b972": {
                
                
                "duration": 5,
                "load": 0.5,
                "priority": 1,
                "location": {
                    "name": "Think Energy n Service Group , CHENNAI No.4/38,1st Floor,Ganapathy Nagar,2nd Street,Ekkathu thangal OppositeNaveen Hotel ,600032",
                    "lat": 13.1255562,
                    "lng": 80.19921939999999
                }
            },
            "17aa8f35b7f6416dd28c5e8be701dd66": {
                
                
                "duration": 5,
                "load": 0.5,
                "priority": 1,
                "location": {
                    "name": "SRIDHAR R , Boopathy Associates P Limited, 7C SP industrial estate, Guind y ,600032",
                    "lat": 13.0144839,
                    "lng": 80.2014185
                }
            },
            "f9775a8d98fd45ddeca382791332b236": {
                
                
                "duration": 5,
                "load": 0.5,
                "priority": 1,
                "location": {
                    "name": "APOORVA REDDY , NO 2 HARIKRISHNA COLONY NANDAMBAKKAM CHENNAI600089 NEAR JABAL NOOR ,600089",
                    "lat": 13.0149893,
                    "lng": 80.19277500000001
                }
            },
            "cefa84278447477981f72a04217246fb": {
                
                
                "duration": 5,
                "load": 0.5,
                "priority": 1,
                "location": {
                    "name": "rahman , murugan store mugalivakkam ma mugalivakkam main rode madhan Chennai,TN ,600022",
                    "lat": 13.0195278,
                    "lng": 80.1445179
                }
            },
            "6f868ae4f232469ce71b80812e4c8e68": {
                
                
                "duration": 5,
                "load": 0.5,
                "priority": 1,
                "location": {
                    "name": "ravikumar , No 10 , f3 aashiyana flats, raju street, west kk nagar. CHENNAI TAMILNADU ,600078",
                    "lat": 13.0424555,
                    "lng": 80.21961399999999
                }
            },
            "b6c8b0a55cd743889cbdc2c7c6d018c1": {
                
                
                "duration": 5,
                "load": 0.5,
                "priority": 1,
                "location": {
                    "name": "ATHMAJA G , 5,MANIKAVASAGAR,GS NAGAR,OPPOSITE DLF IT PARK,RAMAPURAM,KANYA WOMENS HOSTEL CHENNAI T ,600089",
                    "lat": 13.0291086,
                    "lng": 80.1779226
                }
            },
            "7630297ae6fa4253f45795fdffb11d4e": {
                
                
                "duration": 5,
                "load": 0.5,
                "priority": 1,
                "location": {
                    "name": "SUMIT DHANKHAR , E208, Casa Grande Aristo,1st N oble Street Tamil Nadu ,600016",
                    "lat": 12.9945482,
                    "lng": 80.18885259999999
                }
            },
            "c02c83d47a2d4fc5856eb7e7f2ee1614": {
                
                
                "duration": 5,
                "load": 0.5,
                "priority": 1,
                "location": {
                    "name": "SaranSaran1941375942702 , Cfgh42aChennai600016Tami lNaduIndia ,600016",
                    "lat": 13.0021286,
                    "lng": 80.2004924
                }
            },
            "021d3ed006db4eda86a7fa871ba1f1e9": {
                
                
                "duration": 5,
                "load": 0.5,
                "priority": 1,
                "location": {
                    "name": "Vaijayathi Raguraman , CHENNAI 38, RAJARAMAN STREET, VIVEKANANDA NAGAR, RAMAPURAM ,600089",
                    "lat": 13.0336087,
                    "lng": 80.1747358
                }
            },
            "f7d25bd4638447dab17315196bfd9658": {
                
                
                "duration": 5,
                "load": 0.5,
                "priority": 1,
                "location": {
                    "name": "Ketan Shiyani , No. 351/4 Ganpathy colony 2nd street j.n.salai guindy ,nr . olympia technology park ,600032",
                    "lat": 13.0148185,
                    "lng": 80.2040158
                }
            },
            "8698618ef35b4d6ab79b3d51ce7f1a5c": {
                
                
                "duration": 5,
                "load": 0.5,
                "priority": 1,
                "location": {
                    "name": "Sanjana Aravind , Cee dee yes chitrakoodam apartents door no. 9, gate no. 32a, cart tra ck road guindy chenn ,600032",
                    "lat": 13.0086186,
                    "lng": 80.25130039999999
                }
            },
            "420b8f5b8c434822e5b9e860aab0a7c8": {
                
                
                "duration": 5,
                "load": 0.5,
                "priority": 1,
                "location": {
                    "name": "Siva Kumar , CHENNAI Zencode Solutions Pvt Ltd,Sidhus Complex,No.18 Sard ar Patel Road,Guindy,Chennai. ,600032",
                    "lat": 13.0113265,
                    "lng": 80.22266580000002
                }
            },
            "cb9df90c3ec34e98c315a9aff58354e6": {
                
                
                "duration": 5,
                "load": 0.5,
                "priority": 1,
                "location": {
                    "name": "basul basha , CHENNAI 9/12, Narasingapuram 1 st Street, Guindy, Chennai sky mens hostel ,600016",
                    "lat": 13.0031864,
                    "lng": 80.20978889999999
                }
            },
            "9d0800b7a2f54d4c983d90d8533294d3": {
                
                
                "duration": 5,
                "load": 0.5,
                "priority": 1,
                "location": {
                    "name": "SENTHIL KUMARAN , DOOR NO.18/40, MORRISON 5TH STREET, ALANDUR, CHENNAI NEAR PIONEER LEATHERS ,600016",
                    "lat": 12.9941407,
                    "lng": 80.1910403
                }
            },
            "c95f8565b93746678ff611704fa9b85d": {
                
                
                "duration": 5,
                "load": 3,
                "priority": 1,
                "location": {
                    "name": "GYANENDRA SAHU , FIITJEE TOWER 2, RAMASWAMY SALI, KK NAGAR NXT TO TNEB KK NAGAR ,600078",
                    "lat": 13.0403925,
                    "lng": 80.2026254
                }
            },
            "09fbf41259624976a4e0ee2e20bc807c": {
                
                
                "duration": 5,
                "load": 1,
                "priority": 1,
                "location": {
                    "name": "akshay , CHENNAI chennai im gears ,600032",
                    "lat": 12.9051059,
                    "lng": 80.16748679999999
                }
            },
            "cc7b0ec83acd40cf852cd248b274a16e": {
                
                
                "duration": 5,
                "load": 2,
                "priority": 1,
                "location": {
                    "name": "BGopalakrishnan , CHENNAI O  square Bldg. plot no. 36/2B  ponnamalle road St.thomas mount Chennai.600016 Adj ,600016",
                    "lat": 13.0607505,
                    "lng": 80.1547365
                }
            },
            "0c8073396ff64bcabe920e3fc553e625": {
                
                
                "duration": 5,
                "load": 3,
                "priority": 1,
                "location": {
                    "name": "R Senthil , 12/44,Naracingapuram 4th stree t, Maduvunkarai Guindy Tamil Nadu ,600032",
                    "lat": 13.0407166,
                    "lng": 80.0248477
                }
            },
            "99b872b7bfb04714ddd3936a08489a00": {
                
                
                "duration": 5,
                "load": 1,
                "priority": 1,
                "location": {
                    "name": "BALAJI Natarajan , Flat D Nu Tech Sapphire,621 Po nnambalam Salai Tamil Nadu ,600078",
                    "lat": 13.0428685,
                    "lng": 80.19706579999999
                }
            },
            "0549a5e28e9c4b4ee723505f80a844bc": {
                
                
                "duration": 5,
                "load": 1,
                "priority": 1,
                "location": {
                    "name": "Ganapathy , NO 8  Moovendar cross street R ajiv gandhi nagar  Nesapakkam Chennai ,600078",
                    "lat": 13.0322451,
                    "lng": 80.1890758
                }
            },
            "077861202049476ecdc4b82f8fd6aaae": {
                
                
                "duration": 5,
                "load": 1,
                "priority": 1,
                "location": {
                    "name": "Selva kumar , CHENNAI L38J, Second Floor, Baradidasan colony, Kk nagar,  N ear Bhuvanshwari Amman Temple ,600083",
                    "lat": 13.0325067,
                    "lng": 80.20554899999999
                }
            },
            "dea34a545e014c499f713f20b936dc97": {
                
                
                "duration": 5,
                "load": 1,
                "priority": 1,
                "location": {
                    "name": "sundra , CHENNAI 49/51 durgai amman kov il street m. g. r. nager chool aipallam choolaipallam ,600068",
                    "lat": 13.0299111,
                    "lng": 80.1953865
                }
            },
            "970271e1040f43f6d71aa39d54b26f21": {
                
                
                "duration": 5,
                "load": 1,
                "priority": 1,
                "location": {
                    "name": "Anandh , CHENNAI Block 9B, Cognizant T echnology Solutions,DLF IT PAR K,Ramapuram DLF IT PARK ,600089",
                    "lat": 13.0226372,
                    "lng": 80.1753663
                }
            },
            "cc13cfcc47f04a2debff259259b25880": {
                
                
                "duration": 5,
                "load": 1,
                "priority": 1,
                "location": {
                    "name": "Ishwarya Sarathi , 3/17 Second cross street Sathya NagarRamapuram Chennai Tamil Nadu ,600089",
                    "lat": 12.9808466,
                    "lng": 80.1811857
                }
            },
            "30d4e1f881a6407bc6d647c74f46c4a2": {
                
                
                "duration": 5,
                "load": 1,
                "priority": 1,
                "location": {
                    "name": "Arvinth Kannan , Near Selva Vinayagar Kovil,,Bh arathi Street,Old Narasingapur am,Race View Colony,Guindy ,600032",
                    "lat": 13.0061607,
                    "lng": 80.21149340000001
                }
            },
            "77abc4572b3c4dcef0b4588b409e43bf": {
                
                
                "duration": 5,
                "load": 1,
                "priority": 1,
                "location": {
                    "name": "Manasa Joshi , DLF SEZ IT Park Mount Poonamal le High Rd Chennai ,Tamil Nadu ,600008",
                    "lat": 13.0232047,
                    "lng": 80.17656439999999
                }
            },
            "ebe2adf4ed96494ecc25d24b98a02cdd": {
                
                
                "duration": 5,
                "load": 0.5,
                "priority": 1,
                "location": {
                    "name": "Manigandan , CHENNAI Spark Global SCS Services Pvt Ltd No.34 Alikhan Stre et,MKN Road Alandur, Chennai ,600016",
                    "lat": 12.9997898,
                    "lng": 80.20288359999999
                }
            },
            "0beee687d6324f46da8ba9db5e3bef50": {
                
                
                "duration": 5,
                "load": 0.5,
                "priority": 1,
                "location": {
                    "name": "Ravichandran , No 1120,74th street,12th secto r, kk nagar. Tamil Nadu ,600078",
                    "lat": 13.0389928,
                    "lng": 80.1946906
                }
            },
            "35681c87f59a4471bb31acd1556b6260": {
                
                
                "duration": 5,
                "load": 0.5,
                "priority": 1,
                "location": {
                    "name": "VISWANATHAN , CHENNAINO. 4, F2, SAIKRUPA APARTMENTCHENNAI , TAMIL NADU ,600061",
                    "lat": 12.9781943,
                    "lng": 80.18651090000002
                }
            },
            "a546a361ed8a48d98a356d1cb109260e": {
                
                
                "duration": 5,
                "load": 3,
                "priority": 1,
                "location": {
                    "name": "R VENKATARAMAN , CHENNAIPLOT NO 596, DOOR NO 18SRINIVCHENNAI , TAMIL NADU ,600078",
                    "lat": 13.0410254,
                    "lng": 80.2000596
                }
            },
            "eb5eeda19c2246f9b8fd8cc2c7182ea6": {
                
                
                "duration": 5,
                "load": 1,
                "priority": 1,
                "location": {
                    "name": "mahendiraraja , CHENNAI Guindy industrial esta te directorare of industrial s afety and health office ,600032",
                    "lat": 13.0133161,
                    "lng": 80.2093587
                }
            },
            "cb04bb6450574469f8a66139b1d851f3": {
                
                
                "duration": 5,
                "load": 2,
                "priority": 1,
                "location": {
                    "name": "SHIVA G , CHENNAINO2/6A,AMBAL NAGAR 1ST STREETCHENNAI , TAMIL NADU ,600032",
                    "lat": 13.0191468,
                    "lng": 80.2049409
                }
            },
            "3173895424ed4b00812426f074147064": {
                
                
                "duration": 5,
                "load": 3,
                "priority": 1,
                "location": {
                    "name": "Malar , 2/26 pillaiyar Kovil st Ramapu ram Chennai  Ramapuram S.O (Ka nchipuram) ,600089",
                    "lat": 13.0180773,
                    "lng": 80.18702239999999
                }
            },
            "b9c0557c25bf4399efadc4183d0240ec": {
                
                
                "duration": 5,
                "load": 1,
                "priority": 1,
                "location": {
                    "name": "Skrishnaveni Kumar , 1A 1st, floor Green Peace Orio n ,600078",
                    "lat": 13.0410254,
                    "lng": 80.2000596
                }
            },
            "8188dfcf49bc4516d323823a4616155f": {
                
                
                "duration": 5,
                "load": 1,
                "priority": 1,
                "location": {
                    "name": "Elisaia Ioane , Miot International, Ground FlNAKANCHIPURAM ,600089",
                    "lat": 13.0215835,
                    "lng": 80.18557980000001
                }
            },
            "8283a41461f347d3fb0aaaf13b5fd8d9": {
                
                
                "duration": 5,
                "load": 1,
                "priority": 1,
                "location": {
                    "name": "S.parimala , No 178 , 8th street , kothari nagar,ramapuram CHENNAI, TAMIL NADU ,600089",
                    "lat": 13.03444,
                    "lng": 80.18608
                }
            },
            "4d34b2138b8e4530edcc196108cb3018": {
                
                
                "duration": 5,
                "load": 1,
                "priority": 1,
                "location": {
                    "name": "syed s , Ramapuram  Chennai India ,600125",
                    "lat": 13.022307,
                    "lng": 80.17142919999999
                }
            },
            "449082b094cb4faa871d000b9142759d": {
                
                
                "duration": 5,
                "load": 1,
                "priority": 1,
                "location": {
                    "name": "Avanthi , 27E Park Dugar Opp DLF Next to Indian Oil Ramapuram Ramapuram ,600089",
                    "lat": 13.0262324,
                    "lng": 80.1759979
                }
            },
            "64a81b541ed6436ee3d90c928a8dd7c0": {
                
                
                "duration": 5,
                "load": 1,
                "priority": 1,
                "location": {
                    "name": "BALU PRAKASH , PLOT NO.34, GROUND FLOOR PERUML NAGAR MAIN ROAD, BALAJI NAGAR, NANGANALLUR OPPOSITE T ,600061",
                    "lat": 12.9748466,
                    "lng": 80.19064499999999
                }
            },
            "2a02072b6de34cec94cc519d14f78dc4": {
                
                
                "duration": 5,
                "load": 1,
                "priority": 1,
                "location": {
                    "name": "Jagannadhan g v , 18,19 PERUMAL KOVIL STREET,poo thapedu Main Road Tamil Nadu ,600089",
                    "lat": 13.0180773,
                    "lng": 80.18702239999999
                }
            },
            "004db0d3398842fbe3291fbb22fa3d47": {
                
                
                "duration": 5,
                "load": 1,
                "priority": 1,
                "location": {
                    "name": "selinamary , no 9 nethaji nagar, 1st street , St Thomas mount,nethaji naga r 1st street ,600016",
                    "lat": 13.134874,
                    "lng": 80.27825000000001
                }
            },
            "1760cd60882f4d93f145254d786bd00b": {
                
                
                "duration": 5,
                "load": 0.5,
                "priority": 1,
                "location": {
                    "name": "zaheer , CHENNAI no.32 kaji sahib stree t, alandur gold gym ,600016",
                    "lat": 12.9974873,
                    "lng": 80.2006371
                }
            },
            "61cb5bb0bb994ad4fa5a198699f08c04": {
                
                
                "duration": 5,
                "load": 0.5,
                "priority": 1,
                "location": {
                    "name": "AGVIKA  V , CIPET GIRLS HOSTEL CHENNAI TAMIL NADU ,600032",
                    "lat": 13.0165,
                    "lng": 80.20607269999999
                }
            },
            "a5030f2d95254fdfdeb82f6abeab7213": {
                
                
                "duration": 5,
                "load": 0.5,
                "priority": 1,
                "location": {
                    "name": "JAYAGAR PRABAKARAN , NEW NO.12, OLD NO.6, NEW BANGARU COLONY1ST STREET, WEST KK NAGAR ,600078",
                    "lat": 13.0440412,
                    "lng": 80.1920529
                }
            },
            "add2adac5ea34e84e553031ef6a2f382": {
                
                
                "duration": 5,
                "load": 0.5,
                "priority": 1,
                "location": {
                    "name": "Vibhor   Sarin , Block 2B , Flat No. 2058 , 5th Floor, Appaswamy Banyan House 471 , MKN Road , Alandur Tami ,600016",
                    "lat": 12.9968415,
                    "lng": 80.1947009
                }
            },
            "ecd1219b61fd4a508543467980839579": {
                
                
                "duration": 5,
                "load": 0.5,
                "priority": 1,
                "location": {
                    "name": "SHIVAM CHOUDHURY , HOUSE NO. 5/17 , AZHAGAPURI NAGAR 3RD STREET ,RAMAPURAM ,600089",
                    "lat": 13.0281523,
                    "lng": 80.182598
                }
            },
            "c22aefa949164d82e796d8534ca15e6e": {
                
                
                "duration": 5,
                "load": 0.5,
                "priority": 1,
                "location": {
                    "name": "Surya , CHENNAI No 12 2nd Floor J.S.Towers 4th Avvairyar Street Meenambakkam Chennai 600027 Near C ,600027",
                    "lat": 13.0125323,
                    "lng": 80.1304624
                }
            },
            "cacea4d800e84eefff1422f52e0a12d3": {
                
                
                "duration": 5,
                "load": 0.5,
                "priority": 1,
                "location": {
                    "name": "GAYATHRI RAJA GOPAL , 2/26, A3, ASHOK GOVERDHAN 6THMAIN ROAD, NANGANALLUR NANGANALLUR OPP INDEPENDENCE DAY ,600061",
                    "lat": 12.9753604,
                    "lng": 80.1901219
                }
            },
            "ec92b9efb9c54100e9483673e80f347b": {
                
                
                "duration": 5,
                "load": 0.5,
                "priority": 1,
                "location": {
                    "name": "Santhosh , CHENNAI 1/H, KALINGA COLONY, PT RAJAN SALAI, KK NAGAR, Opp to Sivan park and Above Allahab ,600078",
                    "lat": 13.0413784,
                    "lng": 80.20513609999999
                }
            },
            "f512e384b7d948b9b1c6d0fb9221b621": {
                
                
                "duration": 5,
                "load": 0.5,
                "priority": 1,
                "location": {
                    "name": "shubha ds , AF4, Navins apartments, Kalasa thamman koil street, Ramapuram , Chennai  600089 ,600089",
                    "lat": 13.0265568,
                    "lng": 80.184783
                }
            },
            "5cd0832e316e4efa9fc8253febfee06e": {
                
                
                "duration": 5,
                "load": 0.5,
                "priority": 1,
                "location": {
                    "name": "VIGNESH.M , FLAT RP RAM BUILDERS SECOND FLOOR BHAKTHI VEDANTE 1ST AVENUE ROYALA NAGAR RAMAPURAM ,600089",
                    "lat": 13.0297929,
                    "lng": 80.1854142
                }
            },
            "3e93d81cba8247a9abcc4bc30bb1448a": {
                
                
                "duration": 5,
                "load": 0.5,
                "priority": 1,
                "location": {
                    "name": "Babloo Babloo , Thirugnanasambandar Street Ac ugam Nagar Ekkatuthangal 12/14 Chennai ,600032",
                    "lat": 13.0183967,
                    "lng": 80.2018322
                }
            },
            "c097b1cc43e841c599e77316db084cea": {
                
                
                "duration": 5,
                "load": 0.5,
                "priority": 1,
                "location": {
                    "name": "SUDHEERKUMAR , BLOCK 2,DLF IT PARK MOUNT POONAMALLE ROAD ,600089",
                    "lat": 13.0226193,
                    "lng": 80.1740229
                }
            },
            "3fe9b168c5144134ed09d96a1c8fa3e8": {
                
                
                "duration": 5,
                "load": 0.5,
                "priority": 1,
                "location": {
                    "name": "Arjun , 29 ayyapuram p.v.rajamannarsalai west kk nagar , c hennai 78 ,600078",
                    "lat": 13.0444335,
                    "lng": 80.1937013
                }
            },
            "d348f6ed9cf947e7da97b06caffcbc7e": {
                
                
                "duration": 5,
                "load": 0.5,
                "priority": 1,
                "location": {
                    "name": "Mukund Tathacharya , 272/59 First Floor, Near Post Office,Lakshmansamay Salai, KK Nagar ,600078",
                    "lat": 13.0410453,
                    "lng": 80.1994015
                }
            },
            "35e3999ee71844eb9f58c7204d11cb2f": {
                
                
                "duration": 5,
                "load": 0.5,
                "priority": 1,
                "location": {
                    "name": "Sweata S , TechnipFMC 19 Velachery MainNACHENNAI ,600032",
                    "lat": 12.9780711,
                    "lng": 80.21967029999999
                }
            },
            "b672e4d824aa46e5c940905bcd82ef01": {
                
                
                "duration": 5,
                "load": 0.5,
                "priority": 1,
                "location": {
                    "name": "MUJAHID SARFRAZ , NO.9FIRST FLOOR,MASUTHI COLOY,5TH STREET,2ND LANE, MADUVINKARAI,GUINDY GUINDY RACE ,600032",
                    "lat": 13.0028672,
                    "lng": 80.2102008
                }
            },
            "3816c58799c94db8db032923e1ce34ba": {
                
                
                "duration": 5,
                "load": 0.5,
                "priority": 1,
                "location": {
                    "name": "Rakshana  V , J. M. Apartments, Raji street, West k.k.nagar Chennai 6000 78 Tamil nadu ,600078",
                    "lat": 13.042041,
                    "lng": 80.1915862
                }
            },
            "dab06aeaf1754461a36d1d3c8f0efdb2": {
                
                
                "duration": 5,
                "load": 0.5,
                "priority": 1,
                "location": {
                    "name": "Humaira Banu , 297 MKN ROAD ALANDUR Near police quarters palayathan street ,600016",
                    "lat": 13.004672,
                    "lng": 80.208989
                }
            },
            "5d5110cd39da4b09e40219670b121e4f": {
                
                
                "duration": 5,
                "load": 3,
                "priority": 1,
                "location": {
                    "name": "IsaivaniVenkat , jayanth tech park Nandambakkam jayanth tech park ,600089",
                    "lat": 13.0184111,
                    "lng": 80.18774820000002
                }
            },
            "ac9ec481e7a24724d08fd87e6c0112b3": {
                
                
                "duration": 5,
                "load": 1,
                "priority": 1,
                "location": {
                    "name": "Anupam Chakraborty , Flat 1B, Kapila Aparment, D10 9, Anna Main Road, K. K. Nagar ,600078",
                    "lat": 13.0350746,
                    "lng": 80.20966980000001
                }
            },
            "b883c70e83694650be68815e9399d6de": {
                
                
                "duration": 5,
                "load": 2,
                "priority": 1,
                "location": {
                    "name": "Amina Nazneen , 13/2BCG Staff Quarters , nearDeer Park 2ASardar Patel road ,600032",
                    "lat": 13.0114375,
                    "lng": 80.2232389
                }
            },
            "32db5ed9e61e455dc862efd8b3c7bdc6": {
                
                
                "duration": 5,
                "load": 3,
                "priority": 1,
                "location": {
                    "name": "Dr Sridev Barathan , CHENNAI New  24 Old  798 Jee vanandam Salai K K Nagar Oppos ite Sivan Park ,600078",
                    "lat": 13.0419716,
                    "lng": 80.2070109
                }
            },
            "8f6615f66f1c416fc4ef7fa4feb21f3b": {
                
                
                "duration": 5,
                "load": 1,
                "priority": 1,
                "location": {
                    "name": "STEVE DSYLVA , 2/103 DSYLVA ELECTRICALS BAZAAR ROAD,ST.THOMAS MOUNT NEAR DOMINICS SCHOOL ,600016",
                    "lat": 13.0051797,
                    "lng": 80.1960727
                }
            },
            "5bc38616e9ce4b61c0adf54b1556ac3c": {
                
                
                "duration": 5,
                "load": 1,
                "priority": 1,
                "location": {
                    "name": "R parthasarathy , 18 Lakshmi Nagar IV stage 5th cross at nanganallur Chennai ,600061",
                    "lat": 12.9743138,
                    "lng": 80.187382
                }
            },
            "600825beb9034fc183a9614623959d4b": {
                
                
                "duration": 5,
                "load": 1,
                "priority": 1,
                "location": {
                    "name": "ANITHA PARTHA SARADHI , MINISTRY OF MSMECHENNAI ,600032",
                    "lat": 13.0177153,
                    "lng": 80.2056743
                }
            },
            "a5b8c0a542934acf902deede73beab8e": {
                
                
                "duration": 5,
                "load": 1,
                "priority": 1,
                "location": {
                    "name": "Lavanya Komala , R.K. SHANMUGAM SALAI , h no 45 9 , near K M nursing home CHENNAI, Tamil Nadu ,600078",
                    "lat": 13.037203,
                    "lng": 80.2013235
                }
            },
            "e1667b4266ce4ca29e88281fc5cb5d14": {
                
                
                "duration": 5,
                "load": 1,
                "priority": 1,
                "location": {
                    "name": "Arjun , 29 ayyapuram p.v.rajamannarsalai west kk nagar , c hennai 78 ,600078",
                    "lat": 13.0444335,
                    "lng": 80.1937013
                }
            },
            "4ac3fde3bdaa484ed2bbe496ea03b1fb": {
                
                
                "duration": 5,
                "load": 1,
                "priority": 1,
                "location": {
                    "name": "Ashwin Sundararajan , Door no.34, G1, Thai Homes, 28 th Street, Thillai Ganga Nagar Chennai, Tamil Nadu ,600061",
                    "lat": 12.9875001,
                    "lng": 80.1901037
                }
            },
            "0526cd43727f4b70978aa4cc3452f3a9": {
                
                
                "duration": 5,
                "load": 1,
                "priority": 1,
                "location": {
                    "name": "bharath , no 22  nk house durgai amman durgai amman koil st choolaip Chennai,TN ,600078",
                    "lat": 12.9611712,
                    "lng": 80.1788262
                }
            },
            "ef4b20901b5f45ebd907f7afe8bb8232": {
                
                
                "duration": 5,
                "load": 1,
                "priority": 1,
                "location": {
                    "name": "RACHEL DHANASINGH , A 1, ST THOMAS MOUNT GARRISONCHURCH, CHENNA , ST THOMAS MOUNT, OPP ST THOMAS POST OF ,600016",
                    "lat": 13.0024034,
                    "lng": 80.1961558
                }
            },
            "2294a394b9854ddfad75de4576951f89": {
                
                
                "duration": 5,
                "load": 0.5,
                "priority": 1,
                "location": {
                    "name": "Siddarth C R , 5, 10th Cross street, Wood Creek County St.Thomas Mount ,600016",
                    "lat": 13.0126603,
                    "lng": 80.1840192
                }
            },
            "442aeeb6afc34fe8f28a788e05d7bd5d": {
                
                
                "duration": 5,
                "load": 0.5,
                "priority": 1,
                "location": {
                    "name": "pragathi kt , No 2, madarasi hostel,bharathi salai,ramapuram madarasi host el, Chennai India ,600087",
                    "lat": 13.0318648,
                    "lng": 80.17744309999999
                }
            },
            "56bbbbebd58140dbc305f41579613f46": {
                
                
                "duration": 5,
                "load": 0.5,
                "priority": 1,
                "location": {
                    "name": "Thanzella Shahul , jesira collection 1064b munusa my salai west kkna ,600078",
                    "lat": 13.0401833,
                    "lng": 80.1930782
                }
            },
            "d700e92a884b49b3d458aeab5744e707": {
                
                
                "duration": 5,
                "load": 3,
                "priority": 1,
                "location": {
                    "name": "Poonam  Prakash , 17 and 18 Amman Nagar 1st stre et Opp AMRITHA VIDHYALAYAM SCH OOL Nesapakkam TN ,600078",
                    "lat": 12.9735061,
                    "lng": 80.1974515
                }
            },
            "2fb7831f820a4c66f6043e6b10bc835e": {
                
                
                "duration": 5,
                "load": 1,
                "priority": 1,
                "location": {
                    "name": "Vinisha  Menon , A3, Vignesh flats , 26th Stree  24, Thillaiganga Nagar, Nangainallur, Chennai, Tamil Nadu  ,600061",
                    "lat": 12.9803831,
                    "lng": 80.18965759999999
                }
            },
            "e026c6990a9048938637bbe7e34bc461": {
                
                
                "duration": 5,
                "load": 2,
                "priority": 1,
                "location": {
                    "name": "divya , No 349 bumble bees play school, lakshmana swamy salai k.k.n agar Landmark near global art ,600078",
                    "lat": 13.0391722,
                    "lng": 80.2007131
                }
            },
            "06090934fdd84f36a2a756431629b612": {
                
                
                "duration": 5,
                "load": 3,
                "priority": 1,
                "location": {
                    "name": "Nandhini  Nandhini , grandmerena plot 7,8jothi nagar Mani road defence colonly ekkatuthangal Chennai Tamil Nadu ,600032",
                    "lat": 13.024005,
                    "lng": 80.20176339999999
                }
            },
            "c1a7914d12d945f8ba13b00977d9941b": {
                
                
                "duration": 5,
                "load": 1,
                "priority": 1,
                "location": {
                    "name": "Saikumar Reddy Balireddy , Ramapuram  Chennai, TN ,600125",
                    "lat": 13.0129745,
                    "lng": 80.17355649999999
                }
            },
            "e36c1e2ad34a45b8d61543e3445a840c": {
                
                
                "duration": 5,
                "load": 1,
                "priority": 1,
                "location": {
                    "name": "Jeba Raja , F4 Ceedeeyes Chitrakoodam32A Vandikaran StreetMaduvankarai GUINDY ,600032",
                    "lat": 12.9958851,
                    "lng": 80.21412769999999
                }
            },
            "68df429a8b344bff994ac216cd647ba6": {
                
                
                "duration": 5,
                "load": 1,
                "priority": 1,
                "location": {
                    "name": "JANANI ARUNKUMAR , CHENNAI FLAT TI, THIRD FLOOR,JAINS ASHRAYA PHASE 1,BLOCK 2, VEMBULIAMMAN KOIL STREET,VIRUG ,600078",
                    "lat": 13.0442248,
                    "lng": 80.1898045
                }
            },
            "d36b07b49c9c43d2f0b5b7af8df88fad": {
                
                
                "duration": 5,
                "load": 1,
                "priority": 1,
                "location": {
                    "name": "Sriram S , A9 Kathirkamam Apartments Mod rn School Road, Nanganallur, hennai Chennai ,600061",
                    "lat": 12.9743745,
                    "lng": 80.1908052
                }
            },
            "3010429e36cf4cdaca2549f7b7a14c00": {
                
                
                "duration": 5,
                "load": 1,
                "priority": 1,
                "location": {
                    "name": "MaduraiPandiyan , No 4/20A 2nd street Maanthi Naicker Thottam Chennai600089 ,600089",
                    "lat": 13.0295818,
                    "lng": 80.18454229999999
                }
            },
            "0481a343856248e6eed672b26b22db46": {
                
                
                "duration": 5,
                "load": 1,
                "priority": 1,
                "location": {
                    "name": "Vibhushitha  Vasudevan , Block 5, DLF IT Park, Shivaji Gardens, Mount Poonamalle Road , Ramapuram TAMILNADU ,600089",
                    "lat": 13.022111,
                    "lng": 80.1742313
                }
            },
            "227ede4b21f64c84835f70a34fad6337": {
                
                
                "duration": 5,
                "load": 1,
                "priority": 1,
                "location": {
                    "name": "Rekhavidya , Sri gowri ladies hostel Ekathuthangal behind Olympia Tech park ,600038",
                    "lat": 13.016032,
                    "lng": 80.2030596
                }
            },
            "bc7ec802021c4bf49a1a599e5a1a9fe0": {
                
                
                "duration": 5,
                "load": 1,
                "priority": 1,
                "location": {
                    "name": "GANESH NARAYANAN, , 15/C24, F1 AGS COLONY 4TH STREET NANGANALLUR ,600061",
                    "lat": 12.9747716,
                    "lng": 80.1860178
                }
            },
            "7b2a8d66ec6d42e7d108c3b09e872ad2": {
                
                
                "duration": 5,
                "load": 0.5,
                "priority": 1,
                "location": {
                    "name": "SARANYA , 10TH BLOCK 124 MOUNT POONAMALLE HIGH ROAD RAMAPURAM OPP TO MGR GARDEN ,600089",
                    "lat": 13.0282132,
                    "lng": 80.17032379999999
                }
            },
            "86d7f730ae6b410db14acfde086a8a5f": {
                
                
                "duration": 5,
                "load": 0.5,
                "priority": 1,
                "location": {
                    "name": "SaiChaitanya , Madras School of Equitation 136, Velachery main road, Blue Cross ,600032",
                    "lat": 12.9989153,
                    "lng": 80.2167553
                }
            },
            "b778e2eb3f774641fc19b9cf8fb1434f": {
                
                
                "duration": 5,
                "load": 0.5,
                "priority": 1,
                "location": {
                    "name": "MUHAMAD SIDDIK M , 3LEBBAI  STREET ALANDUR CHENNAI ( NEAR BY ROYAL BAKERY) CHENNAI TN ,600016",
                    "lat": 12.9975514,
                    "lng": 80.2024278
                }
            },
            "ec9c13e246ee408193d6746d95636b41": {
                
                
                "duration": 5,
                "load": 3,
                "priority": 1,
                "location": {
                    "name": "M.sachin Sharma , Ts 73 RAJARAJAN street VISHALA KSHI nagar EKKATTUTHANGAL SARA Chennai , Tamil Nadu ,600032",
                    "lat": 13.0229403,
                    "lng": 80.200057
                }
            },
            "d06159c2d4364e9db11876622f22724f": {
                
                
                "duration": 5,
                "load": 1,
                "priority": 1,
                "location": {
                    "name": "Ramya Yadav , 1124 Shivaji Gardens Moon Light StopNandampakkam Post Ramapuram Chennai600089 Chennai ,600089",
                    "lat": 13.0180773,
                    "lng": 80.18702239999999
                }
            },
            "0a0c2c5433ea4323e5e4171e0c6cc16e": {
                
                
                "duration": 5,
                "load": 2,
                "priority": 1,
                "location": {
                    "name": "jagadees babu , 6,Viswanathapuram, Nanganallur Near velan theater Chennai In dia ,600114",
                    "lat": 9.9580593,
                    "lng": 78.1262562
                }
            },
            "dce38957f4be4571fc7bacdd8682c717": {
                
                
                "duration": 5,
                "load": 3,
                "priority": 1,
                "location": {
                    "name": "JuliaEdwards , THY MERCY, No 2, teachers colony, pazhavantangal, meenambakk ,600027",
                    "lat": 12.988274,
                    "lng": 80.18225939999999
                }
            },
            "fb575e4efea744d9acf16c0475f1f178": {
                
                
                "duration": 5,
                "load": 1,
                "priority": 1,
                "location": {
                    "name": "NURI . , CHIEF WATER ANALYSIS KING INSTITUTE GUINDY NEAR BRIDGE DOWNCHENNAI TN ,600032",
                    "lat": 13.0124413,
                    "lng": 80.2176106
                }
            },
            "417379284e1a45f193ef742481748df2": {
                
                
                "duration": 5,
                "load": 1,
                "priority": 1,
                "location": {
                    "name": "Anu Sowrirajan , 10MMTC COLONY SRIVIDYA nagar, Nanganullur Chennai Tamil Nadu ,600061",
                    "lat": 12.9781943,
                    "lng": 80.18651090000002
                }
            },
            "3bc5ec1a366d433dbddfbef98dd1e870": {
                
                
                "duration": 5,
                "load": 1,
                "priority": 1,
                "location": {
                    "name": "Bharrgavi  Ashok , 810 60th Street, SanthiniketanColony, Sector 10, KK Nagar, Chennai, Tamil Nadu 600078, Ind ,600078",
                    "lat": 13.043336,
                    "lng": 80.195042
                }
            },
            "3ff930a6c2784fa6c9e9b02333b74267": {
                
                
                "duration": 5,
                "load": 1,
                "priority": 1,
                "location": {
                    "name": "Subha Aramuthan , DLF Infocity Block 9B 10A Chennai ,600089",
                    "lat": 13.023814,
                    "lng": 80.178906
                }
            },
            "911dc251110f4a8fc339438332159851": {
                
                
                "duration": 5,
                "load": 1,
                "priority": 1,
                "location": {
                    "name": "rajasekarss , 1/25 Manppakkam vvpmahal Manppakkam vvpmahal Kanchipuram,TN ,600125",
                    "lat": 12.818456,
                    "lng": 79.6946586
                }
            },
            "6f4f48ccdb9a42eff41cdab3b833e41d": {
                
                
                "duration": 5,
                "load": 1,
                "priority": 1,
                "location": {
                    "name": "puspa rath , sri siddrini sadan,no12/122,2 nd floor,6th street,1st sector , kk nagar,chennai ,600078",
                    "lat": 13.0377536,
                    "lng": 80.20394929999999
                }
            },
            "1cee57748b754b45951a4a936c2438d8": {
                
                
                "duration": 5,
                "load": 1,
                "priority": 1,
                "location": {
                    "name": "Prabhu Raja , F2, Prince Villa AptNo 5 South Raja St,1st LaneAlandur,Chennai ,600016",
                    "lat": 12.9978573,
                    "lng": 80.1994297
                }
            },
            "ba13e01c74674aa1b9f3b49b183e91ee": {
                
                
                "duration": 5,
                "load": 0.5,
                "priority": 1,
                "location": {
                    "name": "Venkatarama Raju , Fortius Block, Olympia T ch Park, 01,SIDCO Indust Chennai ,600032",
                    "lat": 13.0153403,
                    "lng": 80.20413719999999
                }
            },
            "a345a8b3d7014a5082a35cf610df5afa": {
                
                
                "duration": 5,
                "load": 0.5,
                "priority": 1,
                "location": {
                    "name": "jaya , Apt 2A ,plot no 384 SBL Encla ve ,6th sector 27th street kk nagar ,600078",
                    "lat": 13.0379213,
                    "lng": 80.2003211
                }
            },
            "67c1d9597e594c85d3a75a4c072d5005": {
                
                
                "duration": 5,
                "load": 0.5,
                "priority": 1,
                "location": {
                    "name": "Nagarajan Shanmugam , HID Global (Or) HID India. Ol mpia Tech Park, SIDCO Industr al Estate Guindy Chennai ,600032",
                    "lat": 13.0149557,
                    "lng": 80.20358829999999
                }
            },
            "924860a99469431284cc815bb1d30c76": {
                
                
                "duration": 5,
                "load": 3,
                "priority": 1,
                "location": {
                    "name": "Dheetsidh S , No28,lawyer Jeganathan St, Amg Towers 3rd Flr CHENNAI ,600032",
                    "lat": 13.0073306,
                    "lng": 80.2064862
                }
            },
            "537bc6f8329c4d63d983a63e7fdbb45a": {
                
                
                "duration": 5,
                "load": 1,
                "priority": 1,
                "location": {
                    "name": "Gomathinayagam  Rathinasabapat , 43, kalaimagal nagar 2nd mainroad, ekkathuthangal Chennai  TN, IN ,600032",
                    "lat": 13.0266217,
                    "lng": 80.2054469
                }
            },
            "87f43310e4024d7b88102f85418dfc40": {
                
                
                "duration": 5,
                "load": 2,
                "priority": 1,
                "location": {
                    "name": "JEBA NITHISH NS , 148,raju street Ayanavaram, 1 Alandur,TN ,600016",
                    "lat": 13.0913776,
                    "lng": 80.23177079999999
                }
            },
            "e2dd3171bcfa4490b54fc5e59e8d122a": {
                
                
                "duration": 5,
                "load": 3,
                "priority": 1,
                "location": {
                    "name": "NagarajNagaraj , No.1/451A Mount Poonamallee Mount Poonamallee Main Road B chennai,TN ,600016",
                    "lat": 13.0374005,
                    "lng": 80.1379024
                }
            },
            "ab7aad1f5d7640effc205daff291b7f3": {
                
                
                "duration": 5,
                "load": 1,
                "priority": 1,
                "location": {
                    "name": "Ethix Industries , plot 94  fourth cross street4th Avenue  sundar nagar  chenTamil Nadu ,600032",
                    "lat": 13.0274802,
                    "lng": 80.2106281
                }
            },
            "9a3127d2f47844239ed413f198e99281": {
                
                
                "duration": 5,
                "load": 1,
                "priority": 1,
                "location": {
                    "name": "ophir elisha , 5/1015 , Seven Wells first Street., St Thomas mount. Chenna i 600016, Chennai, Tamil Nadu ,600016",
                    "lat": 13.0051471,
                    "lng": 80.1935033
                }
            },
            "bee78e5d29864ee1d38b0db1f28c104b": {
                
                
                "duration": 5,
                "load": 1,
                "priority": 1,
                "location": {
                    "name": "saravana  kumar , Plot no.34, Door no.1/61  19, Pallwell street, Ravi Colony, St.Thomas Mount. ,600016",
                    "lat": 13.0099739,
                    "lng": 80.1976189
                }
            },
            "209ffba3d94a45cdf0178b8103583e4b": {
                
                
                "duration": 5,
                "load": 1,
                "priority": 1,
                "location": {
                    "name": "Karthi Keyan , M 21E Sri Subha Colony Munuswamy Salai K K Nagar (West) Chennai 78 Chennai600078 Chennai ,600078",
                    "lat": 13.0432617,
                    "lng": 80.1933536
                }
            },
            "b7a654f8fb8e4a6acbaf89afa0f823a4": {
                
                
                "duration": 5,
                "load": 1,
                "priority": 1,
                "location": {
                    "name": "Arjun , 29 ayyapuram p.v.rajamannarsalai west kk nagar , c hennai 78 ,600078",
                    "lat": 13.0444335,
                    "lng": 80.1937013
                }
            },
            "4659f7883cc643e5e5a5dd9feec2f1b9": {
                
                
                "duration": 5,
                "load": 1,
                "priority": 1,
                "location": {
                    "name": "Gori Chand , H.no. 2 , Plot no. 7,Venkate Chennai TAMIL NADU ,600032",
                    "lat": 13.0177153,
                    "lng": 80.2056743
                }
            },
            "1381bd6254664005bf41691741bb2db4": {
                
                
                "duration": 5,
                "load": 1,
                "priority": 1,
                "location": {
                    "name": "Sam Kirubaharan , 309 , Nsic software technology Ekkadutangal , ,600032",
                    "lat": 13.019004,
                    "lng": 80.20691529999999
                }
            },